"ROW_NR","UNITS","CBSA_NAME","SITE_LATITUDE","SITE_LONGITUDE","COUNTY","Daily.Mean.PM2.5.Concentration","STATE","Date"
"240","ug/m3 LC","San Francisco-Oakland-Hayward","37.687526","-121.784217","Alameda","5.8","California","2016-08-29"
"540","ug/m3 LC","San Francisco-Oakland-Hayward","37.743065","-122.169935","Alameda","2.3","California","2016-08-29"
"1111","ug/m3 LC","San Francisco-Oakland-Hayward","37.793624","-122.263376","Alameda","6.1","California","2016-08-29"
"1230","ug/m3 LC","San Francisco-Oakland-Hayward","37.8647670009","-122.302741","Alameda","6","California","2016-08-29"
"1506","ug/m3 LC","Chico","39.7615384387","-121.8416203644","Butte","11.5","California","2016-08-29"
"2155","ug/m3 LC","No Data","39.0212210009","-122.281803","Colusa","7.4","California","2016-08-29"
"2588","ug/m3 LC","San Francisco-Oakland-Hayward","37.936013","-122.026154","Contra Costa","2.5","California","2016-08-29"
"2851","ug/m3 LC","San Francisco-Oakland-Hayward","37.9604","-122.356811","Contra Costa","4.5","California","2016-08-29"
"3144","ug/m3 LC","Fresno","36.7853217602","-119.7741738902","Fresno","13.4","California","2016-08-29"
"3578","ug/m3 LC","Fresno","36.9851185574","-119.6583393499","Fresno","15.2","California","2016-08-29"
"3873","ug/m3 LC","Fresno","36.198672","-120.101096","Fresno","10.2","California","2016-08-29"
"4336","ug/m3 LC","Fresno","36.8191105157","-119.7173558156","Fresno","15.9","California","2016-08-29"
"5627","ug/m3 LC","Bishop","37.360684","-118.330783","Inyo","11.1","California","2016-08-29"
"5985","ug/m3 LC","Bishop","36.487823","-117.871036","Inyo","12","California","2016-08-29"
"6324","ug/m3 LC","Bakersfield","35.0505513495","-118.147293621","Kern","15.2","California","2016-08-29"
"6828","ug/m3 LC","Bakersfield","35.3560923335","-119.0412094723","Kern","19.7","California","2016-08-29"
"10617","ug/m3 LC","San Francisco-Oakland-Hayward","37.97231","-122.520004","Marin","4.2","California","2016-08-29"
"11170","ug/m3 LC","Merced","37.281598109","-120.4349916881","Merced","14.9","California","2016-08-29"
"11524","ug/m3 LC","Salinas","36.4957666675","-121.7315711407","Monterey","5.1","California","2016-08-29"
"11791","ug/m3 LC","Salinas","36.2092860009","-121.126371","Monterey","5.9","California","2016-08-29"
"12074","ug/m3 LC","Salinas","36.6967601141","-121.6371823446","Monterey","6.9","California","2016-08-29"
"12335","ug/m3 LC","Napa","38.310942","-122.296189","Napa","8.3","California","2016-08-29"
"13271","ug/m3 LC","Sacramento--Roseville--Arden-Arcade","38.935577909","-121.100647797","Placer","11.6","California","2016-08-29"
"13747","ug/m3 LC","No Data","39.9370989451","-120.9388206689","Plumas","10.7","California","2016-08-29"
"16513","ug/m3 LC","Sacramento--Roseville--Arden-Arcade","38.6137790009","-121.368014","Sacramento","4.2","California","2016-08-29"
"16765","ug/m3 LC","Sacramento--Roseville--Arden-Arcade","38.6137790009","-121.368014","Sacramento","7.3","California","2016-08-29"
"17093","ug/m3 LC","Sacramento--Roseville--Arden-Arcade","38.5582277239","-121.4929811724","Sacramento","4.9","California","2016-08-29"
"17407","ug/m3 LC","Sacramento--Roseville--Arden-Arcade","38.683304","-121.164457","Sacramento","5.7","California","2016-08-29"
"17670","ug/m3 LC","Sacramento--Roseville--Arden-Arcade","38.683304","-121.164457","Sacramento","5.3","California","2016-08-29"
"18016","ug/m3 LC","San Jose-Sunnyvale-Santa Clara","36.8440963155","-121.3621211714","San Benito","7.5","California","2016-08-29"
"21738","ug/m3 LC","San Francisco-Oakland-Hayward","37.765946","-122.399044","San Francisco","4","California","2016-08-29"
"22244","ug/m3 LC","Stockton-Lodi","37.7932310881","-121.2487199757","San Joaquin","8","California","2016-08-29"
"22583","ug/m3 LC","San Luis Obispo-Paso Robles-Arroyo Grande","35.02083","-120.56388","San Luis Obispo","6.3","California","2016-08-29"
"22655","ug/m3 LC","San Luis Obispo-Paso Robles-Arroyo Grande","35.2565768749","-120.6698614307","San Luis Obispo","11.5","California","2016-08-29"
"23126","ug/m3 LC","San Luis Obispo-Paso Robles-Arroyo Grande","35.49453","-120.66617","San Luis Obispo","6.6","California","2016-08-29"
"23417","ug/m3 LC","San Francisco-Oakland-Hayward","37.482934","-122.20337","San Mateo","10.1","California","2016-08-29"
"23699","ug/m3 LC","Santa Maria-Santa Barbara","34.9491471842","-120.4376298533","Santa Barbara","10.8","California","2016-08-29"
"24457","ug/m3 LC","San Jose-Sunnyvale-Santa Clara","36.999571","-121.574684","Santa Clara","6.6","California","2016-08-29"
"24813","ug/m3 LC","San Jose-Sunnyvale-Santa Clara","37.348497","-121.894898","Santa Clara","7.4","California","2016-08-29"
"25113","ug/m3 LC","San Jose-Sunnyvale-Santa Clara","37.338135","-121.849783","Santa Clara","7.2","California","2016-08-29"
"25407","ug/m3 LC","Santa Cruz-Watsonville","36.9839209877","-121.9893282424","Santa Cruz","5.3","California","2016-08-29"
"25677","ug/m3 LC","Santa Cruz-Watsonville","37.0630685077","-122.0841287539","Santa Cruz","4.5","California","2016-08-29"
"26017","ug/m3 LC","Vallejo-Fairfield","38.102507","-122.237976","Solano","1.7","California","2016-08-29"
"26301","ug/m3 LC","Vallejo-Fairfield","38.102507","-122.237976","Solano","4","California","2016-08-29"
"26599","ug/m3 LC","Santa Rosa","38.403765","-122.818294","Sonoma","1.6","California","2016-08-29"
"27078","ug/m3 LC","Modesto","37.4879805928","-120.8370050082","Stanislaus","7.2","California","2016-08-29"
"27314","ug/m3 LC","Yuba City","39.1387725442","-121.6185489862","Sutter","7","California","2016-08-29"
"28256","ug/m3 LC","Visalia-Porterville","36.0318310009","-119.055018","Tulare","18.2","California","2016-08-29"
